{"results": [{"private": false, "longitude": -83.0501601, "id": "10", "name": "First Street Parking Deck", "address": "621 Cass", "latitude": 42.3285765, "spaces": 1450}, {"private": true, "longitude": -83.047012, "id": "124", "name": "Detroit Athletic Club Valet Lot", "address": "241 Madison", "latitude": 42.337933, "spaces": 24}, {"private": false, "longitude": -83.0582774, "id": "206", "name": "MGM Grand Detroit Casino Surface Lot", "address": "2201 W Grand River", "latitude": 42.3361209, "spaces": 274}, {"private": false, "longitude": -83.0542696, "id": "1", "name": "Joe Louis Arena", "address": "900 W Jefferson Ave", "latitude": 42.3259106, "spaces": 3000}, {"private": false, "longitude": -83.0449362, "id": "36", "name": "One Detroit Center", "address": "500 Woodward Ave", "latitude": 42.3300676, "spaces": 2078}, {"private": false, "longitude": -83.0441238, "id": "56", "name": "110 Cadillac Square (at Bates)", "address": "110 Cadillac Square", "latitude": 42.33141759999999, "spaces": 40}, {"private": false, "longitude": -83.03366799999999, "id": "63", "name": "Riverside Deck", "address": "1000 Franklin", "latitude": 42.3311728, "spaces": 2164}, {"private": true, "longitude": -83.03883909999999, "id": "89", "name": "Blue Cross Parking Garage", "address": "651 E Congress St", "latitude": 42.3331409, "spaces": 1825}, {"private": false, "longitude": -83.0473688, "id": "120", "name": "Detroit Opera House Garage", "address": "1426 Broadway St", "latitude": 42.3354607, "spaces": 770}, {"private": false, "longitude": -83.2445063, "id": "133", "name": "Greektown Casino Garage", "address": "881 Monroe St", "latitude": 42.3073777, "spaces": 2900}, {"private": false, "longitude": -83.04870500000001, "id": "141", "name": "Grand Circus Garage", "address": "1600 Woodward Ave", "latitude": 42.339149, "spaces": 900}, {"private": false, "longitude": -83.041657, "id": "175", "name": "New Proposed Jail Site", "address": "660 Gratiot", "latitude": 42.338793, "spaces": 1300}]}